City ID,City,Lat,Lng,Max Temp,Humidity,Cloudiness,Wind Speed,Country,Date
0,hilo,19.7297,-155.09,78.53,65,40,10.36,US,1638132336
1,cidreira,-30.1811,-50.2056,72.3,87,100,8.61,BR,1638132338
2,punta arenas,-53.15,-70.9167,50.11,62,75,29.93,CL,1638132158
3,ostersund,63.1792,14.6357,18.05,93,99,6.91,SE,1638132345
4,ola,59.5833,151.2833,14.83,87,100,4.21,RU,1638132347
5,batemans bay,-35.7167,150.1833,59.14,67,74,2.55,AU,1638132086
6,viru,-8.4167,-78.75,65.5,69,100,9.35,PE,1638132352
7,kabelvag,68.2114,14.4817,28.4,80,75,5.75,NO,1638132355
8,bovolone,45.2548,11.1263,41.52,86,100,3.11,IT,1638132359
9,atuona,-9.8,-139.0333,78.53,72,1,18.23,PF,1638132362
10,airai,-8.9266,125.4092,60.44,89,100,1.5,TL,1638132365
11,tiksi,71.6872,128.8694,-13.72,99,99,6.53,RU,1638132367
12,cherdyn,60.403,56.4787,27.81,95,100,10.33,RU,1638132369
13,arman,59.7,150.1667,11.61,94,100,4.59,RU,1638132372
14,hofn,64.2539,-15.2082,31.17,97,100,9.8,IS,1638132334
15,puerto ayora,-0.7393,-90.3518,78.76,81,85,10.18,EC,1638132377
16,kununurra,-15.7667,128.7333,75.18,94,47,0.0,AU,1638132236
17,raglan,-37.8,174.8833,65.39,70,47,4.32,NZ,1638132381
18,maragogi,-9.0122,-35.2225,80.35,81,34,13.65,BR,1638132384
19,mamakan,57.8161,114.0028,2.39,92,100,2.01,RU,1638132386
20,yellowknife,62.456,-114.3525,18.12,93,90,12.66,CA,1638132319
21,half moon bay,37.4636,-122.4286,66.38,65,1,0.0,US,1638132237
22,jamestown,42.097,-79.2353,36.72,100,90,11.5,US,1638132292
23,broome,42.2506,-75.833,32.77,100,90,8.05,US,1638132396
24,ushuaia,-54.8,-68.3,46.06,71,40,20.71,AR,1638132398
25,lerwick,60.1545,-1.1494,32.0,54,98,8.7,GB,1638132400
26,hithadhoo,-0.6,73.0833,81.37,75,66,17.43,MV,1638132403
27,rikitea,-23.1203,-134.9692,76.73,74,11,16.35,PF,1638132406
28,bandarbeyla,9.4942,50.8122,77.7,75,36,18.81,SO,1638132408
29,arraial do cabo,-22.9661,-42.0278,78.76,83,20,6.91,BR,1638132411
30,hasaki,35.7333,140.8333,32.4,48,2,0.89,JP,1638132413
31,presidencia roque saenz pena,-26.7852,-60.4388,78.78,64,32,11.92,AR,1638132416
32,yar-sale,66.8333,70.8333,-6.25,94,100,8.1,RU,1638132418
33,barrow,71.2906,-156.7887,-11.18,70,90,13.8,US,1638132421
34,longyearbyen,78.2186,15.6401,10.24,56,75,23.02,SJ,1638132423
35,namibe,-15.1961,12.1522,69.42,76,92,5.48,AO,1638132426
36,bluff,-46.6,168.3333,55.81,68,53,19.35,NZ,1638132428
37,avarua,-21.2078,-159.775,80.65,57,75,5.75,CK,1638132431
38,kimbe,-5.5502,150.1429,79.2,85,100,1.88,PG,1638132433
39,burns lake,54.2331,-125.7533,40.42,77,49,7.99,CA,1638132436
40,luderitz,-26.6481,15.1594,61.3,84,8,8.93,NA,1638132439
41,tallahassee,30.4383,-84.2807,60.64,41,90,4.61,US,1638132320
42,roald,62.5833,6.1333,26.74,68,20,11.5,NO,1638132443
43,mount isa,-20.7333,139.5,76.77,29,90,10.36,AU,1638132446
44,bredasdorp,-34.5322,20.0403,62.89,81,12,5.19,ZA,1638132448
45,hermanus,-34.4187,19.2345,63.55,84,75,7.61,ZA,1638132451
46,kaoma,-14.7833,24.8,69.35,66,99,5.26,ZM,1638132453
47,sabang,5.8933,95.3214,80.42,73,99,3.29,ID,1638132335
48,saskylakh,71.9167,114.0833,-19.86,100,100,4.43,RU,1638132461
49,albany,42.6001,-73.9662,30.85,84,91,2.98,US,1638132244
50,saldanha,-33.0117,17.9442,64.45,85,26,5.35,ZA,1638132166
51,lorengau,-2.0226,147.2712,80.91,79,98,2.39,PG,1638132468
52,poya,-21.35,165.15,82.6,67,69,2.77,NC,1638132470
53,kirakira,-10.4544,161.9205,83.16,77,86,6.89,SB,1638132473
54,new norfolk,-42.7826,147.0587,54.9,74,58,2.35,AU,1638132475
55,nelson bay,-32.7167,152.15,62.65,74,100,6.15,AU,1638132478
56,tuatapere,-46.1333,167.6833,58.75,46,22,3.49,NZ,1638132480
57,yulara,-25.2406,130.9889,57.04,51,0,3.44,AU,1638132482
58,tshikapa,-6.4167,20.8,69.35,96,65,1.66,CD,1638132485
59,calabozo,8.9242,-67.4293,88.84,48,100,6.4,VE,1638132487
60,clyde river,70.4692,-68.5914,-3.77,84,100,14.97,CA,1638132490
61,salalah,17.0151,54.0924,75.29,73,0,4.61,OM,1638132493
62,labuhan,-6.8844,112.2051,75.88,90,100,3.13,ID,1638132495
63,sao filipe,14.8961,-24.4956,76.8,70,95,14.7,CV,1638132498
64,moura,38.1401,-7.4486,50.11,83,21,7.49,PT,1638132500
65,ponta do sol,32.6667,-17.1,65.03,77,51,8.61,PT,1638132505
66,van buren,35.4368,-94.3483,62.62,39,1,4.61,US,1638132508
67,san carlos de bariloche,-41.1456,-71.3082,64.15,22,20,26.46,AR,1638132510
68,guerrero negro,27.9769,-114.0611,78.13,34,0,8.57,MX,1638132375
69,saint-augustin,51.226,-58.6502,34.32,84,99,23.71,CA,1638132515
70,torbay,47.6666,-52.7314,45.37,70,75,13.8,CA,1638132517
71,waipawa,-41.4122,175.5153,63.23,67,71,5.5,NZ,1638132424
72,coari,-4.085,-63.1414,81.3,88,73,0.83,BR,1638132531
73,busselton,-33.65,115.3333,61.63,80,38,7.92,AU,1638132534
74,lebu,-37.6167,-73.65,56.28,70,5,19.35,CL,1638132538
75,zhicheng,30.2956,111.5047,49.8,58,89,1.74,CN,1638132541
76,mar del plata,-38.0023,-57.5575,66.22,88,90,14.97,AR,1638132543
77,lambarene,-0.7001,10.2406,75.49,94,98,5.39,GA,1638132546
78,pierre,44.3683,-100.351,49.12,49,40,3.44,US,1638132548
79,mizdah,31.4451,12.9801,57.22,70,9,22.77,LY,1638132551
80,stokmarknes,68.5646,14.9108,28.36,93,75,5.75,NO,1638132553
81,katangli,51.7102,143.2326,21.56,85,100,6.33,RU,1638132555
82,roros,62.5747,11.3842,-13.16,84,90,1.14,NO,1638132558
83,pevek,69.7008,170.3133,1.9,89,100,1.79,RU,1638132560
84,ayna,-12.65,-73.9167,79.3,66,84,3.29,PE,1638132563
85,vao,-22.6667,167.4833,75.92,88,22,21.56,NC,1638132565
86,auki,-8.7676,160.7034,81.32,79,77,3.76,SB,1638132568
87,taraz,42.9,71.3667,21.61,93,21,6.71,KZ,1638132571
88,san lawrenz,36.0553,14.204,58.41,68,49,27.34,MT,1638132573
89,harper,4.375,-7.7169,79.3,81,64,5.08,LR,1638132578
90,husavik,66.0449,-17.3389,28.31,95,100,5.06,IS,1638132580
91,lahij,13.1667,44.5833,73.98,63,0,1.9,YE,1638132583
92,provideniya,64.3833,-173.3,-3.89,50,0,6.71,RU,1638132305
93,henties bay,-22.116,14.2845,60.13,91,0,7.81,NA,1638132590
94,port lincoln,-34.7333,135.8667,61.21,70,1,5.79,AU,1638132319
95,tura,25.5198,90.2201,59.22,62,5,3.49,IN,1638132595
96,nome,64.5011,-165.4064,-21.93,76,1,3.44,US,1638132598
97,faanui,-16.4833,-151.75,81.41,74,98,11.27,PF,1638132600
98,nacogdoches,31.6002,-94.6335,64.58,72,20,4.61,US,1638132602
99,barra patuca,15.8,-84.2833,80.49,68,44,7.63,HN,1638132605
100,hobart,-42.8794,147.3294,55.26,76,0,9.22,AU,1638132563
101,krasnoselkup,65.7,82.4667,-19.01,100,73,5.26,RU,1638132610
102,los llanos de aridane,28.6585,-17.9182,64.15,73,75,19.57,ES,1638132612
103,fairbanks,64.8378,-147.7164,-27.44,75,1,0.0,US,1638132438
104,butembo,0.15,29.2833,57.78,96,96,3.44,CD,1638132617
105,komsomolskiy,40.4272,71.7189,33.22,80,33,4.61,UZ,1638132620
106,halvad,23.0167,71.1833,72.97,37,90,6.58,IN,1638132622
107,ocampo,21.65,-101.5,66.99,34,100,4.12,MX,1638132624
108,cape town,-33.9258,18.4232,63.01,94,40,4.61,ZA,1638132600
109,challapata,-18.9,-66.7667,62.65,42,72,12.12,BO,1638132631
110,bend,44.0582,-121.3153,64.26,42,1,18.41,US,1638132505
111,bambous virieux,-20.3428,57.7575,73.65,83,20,3.44,MU,1638132638
112,kashihara,34.509,135.7929,40.28,59,12,3.15,JP,1638132641
113,aklavik,68.2191,-135.0107,-12.17,70,40,16.11,CA,1638132644
114,aguas belas,-9.1114,-37.1231,85.6,47,98,13.89,BR,1638132646
115,christchurch,-43.5333,172.6333,57.4,94,90,8.05,NZ,1638132651
116,qaqortoq,60.7167,-46.0333,37.9,98,100,9.19,GL,1638132435
117,sarai naurang,32.8259,70.7814,61.11,32,0,2.91,PK,1638132656
118,nichinan,31.6,131.3667,50.76,77,47,6.87,JP,1638132658
119,mataura,-46.1927,168.8643,58.6,51,84,3.69,NZ,1638132661
120,pisco,-13.7,-76.2167,71.65,68,0,23.02,PE,1638132663
121,mogadishu,2.0371,45.3438,81.21,77,42,9.91,SO,1638132536
122,east london,-33.0153,27.9116,69.12,74,26,5.84,ZA,1638132668
123,juneau,58.3019,-134.4197,30.25,86,75,6.91,US,1638132620
124,cayenne,4.9333,-52.3333,78.84,94,40,2.3,GF,1638132673
125,kavaratti,10.5669,72.642,81.0,78,98,15.66,IN,1638132675
126,thompson,55.7435,-97.8558,5.16,85,40,6.91,CA,1638132678
127,cuambog,7.3086,125.8481,77.04,93,98,5.59,PH,1638132680
128,yelan,50.949,43.7378,41.81,97,98,7.63,RU,1638132682
129,fuerte olimpo,-21.0415,-57.8738,89.13,47,98,1.45,PY,1638132685
130,gilgit,35.9221,74.3087,42.98,54,78,3.11,PK,1638132687
131,tuktoyaktuk,69.4541,-133.0374,-9.4,70,75,17.27,CA,1638132690
132,khatanga,71.9667,102.5,-8.03,98,100,9.31,RU,1638132693
133,severo-yeniseyskiy,60.3725,93.0408,10.58,90,100,11.86,RU,1638132695
134,miles city,46.4083,-105.8406,58.17,41,1,5.75,US,1638132698
135,mount darwin,-16.7725,31.5838,68.68,53,25,3.94,ZW,1638132700
136,severo-kurilsk,50.6789,156.125,32.68,93,100,11.95,RU,1638132702
137,port elizabeth,-33.918,25.5701,66.49,72,0,24.16,ZA,1638132705
138,afzalpur,17.2,76.35,70.74,76,85,8.39,IN,1638132707
139,port-gentil,-0.7193,8.7815,80.56,83,20,8.05,GA,1638132710
140,rock sound,24.9,-76.2,75.92,65,35,2.1,BS,1638132712
141,dikson,73.5069,80.5464,-15.25,100,100,11.92,RU,1638132715
142,povenets,62.8487,34.8262,18.52,87,100,9.06,RU,1638132717
143,saint-philippe,-21.3585,55.7679,74.79,83,42,3.65,RE,1638132720
144,vaini,-21.2,-175.2,80.76,74,20,9.22,TO,1638132722
145,flinders,-34.5833,150.8552,56.48,69,64,3.22,AU,1638132725
146,pitrufquen,-38.9833,-72.65,64.42,52,0,12.66,CL,1638132727
147,vejle,55.7093,9.5357,36.36,97,99,6.87,DK,1638132730
148,souillac,-20.5167,57.5167,73.78,83,20,3.44,MU,1638132446
149,toppenish,46.3774,-120.3087,63.7,47,100,20.54,US,1638132542
150,grand gaube,-20.0064,57.6608,73.8,70,6,7.23,MU,1638132737
151,port alfred,-33.5906,26.891,66.2,80,6,10.4,ZA,1638132741
152,norman wells,65.282,-126.8329,-30.96,61,75,2.3,CA,1638132683
153,rapid valley,44.0625,-103.1463,63.45,29,1,5.75,US,1638132746
154,butaritari,3.0707,172.7902,81.61,78,86,13.18,KI,1638132748
155,tasiilaq,65.6145,-37.6368,14.11,96,97,2.39,GL,1638132740
156,sitka,57.0531,-135.33,35.49,64,75,13.8,US,1638132753
157,yumen,40.2833,97.2,20.01,47,0,14.88,CN,1638132756
158,antalaha,-14.9003,50.2788,74.21,90,71,6.8,MG,1638132760
159,san quintin,30.4833,-115.95,72.54,36,0,10.83,MX,1638132763
160,kindu,-2.95,25.95,69.33,98,99,0.49,CD,1638132765
161,nizwa,22.9333,57.5333,68.23,44,0,3.62,OM,1638132768
162,vallenar,-28.5708,-70.7581,82.13,25,0,9.22,CL,1638132770
163,presidente epitacio,-21.7633,-52.1156,93.6,35,65,4.72,BR,1638132773
164,ustynivka,47.9551,32.5367,52.18,98,100,8.21,UA,1638132775
165,micheweni,-4.9667,39.8333,79.52,79,64,6.31,TZ,1638132778
166,deputatskiy,69.3,139.9,-12.33,96,100,5.1,RU,1638132780
167,tukrah,32.5341,20.5791,79.88,27,98,33.67,LY,1638132783
168,zhigansk,66.7697,123.3711,-7.89,99,100,5.66,RU,1638132785
169,mayo,38.8876,-76.5119,57.24,57,60,2.08,US,1638132787
170,bozeman,45.6796,-111.0386,63.09,32,1,18.41,US,1638132744
171,kodiak,57.79,-152.4072,11.93,65,3,6.35,US,1638132792
172,lazaro cardenas,17.9583,-102.2,84.63,55,4,10.0,MX,1638132795
173,vanimo,-2.6741,141.3028,77.32,89,99,5.5,PG,1638132797
174,isangel,-19.55,169.2667,81.21,75,100,7.25,VU,1638132800
175,paita,-5.0892,-81.1144,75.76,75,71,17.13,PE,1638132802
176,mbuji-mayi,-6.15,23.6,69.73,94,39,0.98,CD,1638132805
177,port hedland,-20.3167,118.5667,75.25,78,27,5.75,AU,1638132807
178,ambala,30.3783,76.7808,57.7,42,0,3.98,IN,1638132810
179,kuito,-12.3833,16.9333,60.89,93,97,3.15,AO,1638132812
180,kaitangata,-46.2817,169.8464,58.39,50,100,6.93,NZ,1638132815
181,lagoa,39.05,-27.9833,60.39,55,63,1.9,PT,1638132817
182,newcastle,-32.9272,151.7765,62.37,82,0,5.75,AU,1638132820
183,baiao,-2.7906,-49.6717,82.31,66,98,3.11,BR,1638132822
184,ancud,-41.8697,-73.8203,58.53,69,73,9.15,CL,1638132824
185,raudeberg,61.9875,5.1352,21.87,40,100,3.69,NO,1638132827
186,ust-uda,54.1742,103.0304,18.57,94,100,6.11,RU,1638132830
187,jinji,23.2281,110.8261,56.97,73,11,2.77,CN,1638132835
188,inyonga,-6.7167,32.0667,71.22,59,84,4.23,TZ,1638132837
189,santa rosalia,27.3167,-112.2833,72.88,48,0,9.66,MX,1638132840
190,port hawkesbury,45.6169,-61.3485,40.59,64,1,5.75,CA,1638132842
191,lander,42.833,-108.7307,55.58,39,100,1.74,US,1638132845
192,mombetsu,44.3525,143.3525,32.79,77,17,9.28,JP,1638132847
193,shimoda,34.6667,138.95,49.6,61,41,4.61,JP,1638132850
194,kangaatsiaq,68.3065,-53.4641,20.79,65,100,25.19,GL,1638132852
195,jalu,29.0331,21.5482,75.81,21,100,11.77,LY,1638132855
196,leningradskiy,69.3833,178.4167,-20.92,94,89,11.32,RU,1638132857
197,ibra,22.6906,58.5334,67.17,45,0,2.39,OM,1638132860
198,brae,60.3964,-1.353,31.91,54,100,6.82,GB,1638132862
199,bethel,41.3712,-73.414,37.98,75,90,3.44,US,1638132600
200,ko samui,9.5357,99.9357,80.65,79,96,19.75,TH,1638132867
201,road town,18.4167,-64.6167,84.24,74,40,5.75,VG,1638132863
202,qingdao,36.0986,120.3719,44.2,100,40,4.47,CN,1638132634
203,bol,13.4586,14.7147,78.64,38,89,12.84,TD,1638132874
204,lovozero,68.005,35.0117,-4.38,89,3,4.23,RU,1638132877
205,lasa,46.6166,10.7002,31.08,94,100,6.78,IT,1638132762
206,la ronge,55.1001,-105.2842,25.05,58,90,12.66,CA,1638132864
207,bengkulu,-3.8004,102.2655,75.85,85,100,4.72,ID,1638132884
208,samana,19.2056,-69.3369,86.22,74,40,6.91,DO,1638132889
209,west plains,36.7281,-91.8524,53.69,37,6,7.81,US,1638132817
210,chokurdakh,70.6333,147.9167,-39.03,100,79,0.58,RU,1638132896
211,poum,-20.2333,164.0167,79.75,76,39,5.01,NC,1638132898
212,sao gabriel da cachoeira,-0.1303,-67.0892,79.99,85,95,1.72,BR,1638132802
213,kieta,-6.2167,155.6333,81.52,78,100,1.68,PG,1638132903
214,kaeo,-35.1,173.7833,68.56,65,100,2.06,NZ,1638132905
215,urucara,-2.5364,-57.76,83.64,69,100,1.54,BR,1638132908
216,chase,50.8165,-119.6857,40.75,100,100,2.33,CA,1638132910
217,rocha,-34.4833,-54.3333,67.6,89,100,5.28,UY,1638132913
218,bergen,60.392,5.328,25.21,63,0,3.44,NO,1638132915
219,bendigo,-36.7667,144.2833,59.99,57,0,5.53,AU,1638132918
220,gospic,44.5461,15.3747,40.69,84,100,7.05,HR,1638132920
221,cabo san lucas,22.8909,-109.9124,74.5,73,100,7.61,MX,1638132923
222,marsh harbour,26.5412,-77.0636,72.46,65,96,3.56,BS,1638132925
223,york,40.1254,-77.0,50.77,65,90,0.0,US,1638132720
224,saint-denis,48.9167,2.3333,37.96,84,20,6.91,FR,1638132930
225,polson,47.6936,-114.1632,57.34,58,98,13.6,US,1638132658
226,albanel,48.8832,-72.4487,21.34,63,85,10.36,CA,1638132935
227,sitarganj,28.9333,79.7,58.78,52,0,3.36,IN,1638132937
228,nikolskoye,59.7035,30.7861,24.69,92,96,5.37,RU,1638132752
229,saint george,37.1041,-113.5841,77.47,23,1,0.0,US,1638132661
230,pacifica,37.6138,-122.4869,71.28,55,20,4.61,US,1638132944
231,santa isabel do rio negro,-0.4139,-65.0192,83.35,78,100,3.09,BR,1638132946
232,oltu,40.5498,42.0013,43.52,85,71,5.53,TR,1638132949
233,kapaa,22.0752,-159.319,78.78,68,2,12.03,US,1638132951
234,carnarvon,-24.8667,113.6333,75.27,64,0,14.97,AU,1638132755
235,champoton,19.35,-90.7167,79.36,65,100,10.04,MX,1638132956
236,bijie,27.3125,105.2942,44.73,95,100,4.61,CN,1638132959
237,perbaungan,3.5679,98.956,75.31,89,100,5.73,ID,1638132961
238,ballina,-28.8667,153.5667,68.18,94,75,8.05,AU,1638132964
239,fare,-16.7,-151.0167,81.43,74,83,12.91,PF,1638132966
240,ulladulla,-35.35,150.4667,56.3,65,88,3.42,AU,1638132969
241,maymyo,22.0333,96.4667,57.27,88,7,1.63,MM,1638132971
242,lorvao,40.2594,-8.3168,53.65,93,96,8.59,PT,1638132974
243,bilma,18.6853,12.9164,75.85,16,100,7.05,NE,1638132976
244,camacha,33.0833,-16.3333,61.56,63,40,10.36,PT,1638132979
245,meulaboh,4.1363,96.1285,74.34,91,100,4.52,ID,1638132981
246,russell,32.3502,-85.1999,55.11,54,90,0.0,US,1638132984
247,santa catalina,9.3337,122.8637,77.59,88,34,6.49,PH,1638132986
248,kribi,2.95,9.9167,79.79,82,100,5.41,CM,1638132989
249,havelock,34.8791,-76.9013,62.58,42,96,6.89,US,1638132991
250,jerome,42.7241,-114.5186,55.87,31,28,4.94,US,1638132994
251,divnomorskoye,44.5011,38.1353,57.76,92,99,21.21,RU,1638132999
252,nanortalik,60.1432,-45.2371,41.18,93,100,13.42,GL,1638133001
253,te anau,-45.4167,167.7167,58.91,47,22,0.81,NZ,1638133003
254,casa nova,-9.4167,-41.1333,80.58,71,98,5.84,BR,1638133006
255,razdolinsk,58.4211,94.6658,21.65,92,100,13.47,RU,1638133008
256,berbera,10.4396,45.0143,81.12,58,1,6.49,SO,1638133011
257,socorro,31.6546,-106.3033,62.46,25,0,1.66,US,1638133014
258,balakhninskiy,58.0106,114.2769,-0.8,98,100,2.15,RU,1638133016
259,esperance,-33.8667,121.9,64.24,89,95,16.08,AU,1638133019
260,bardiyah,31.7561,25.0865,74.25,40,100,18.68,LY,1638133021
261,jacareacanga,-6.2222,-57.7528,76.37,90,99,1.83,BR,1638133024
262,bahia honda,22.9036,-83.1592,75.81,63,21,8.12,CU,1638133026
263,jati,24.3539,68.2671,73.76,28,0,8.52,PK,1638133029
264,aswan,24.0934,32.907,74.5,31,0,8.05,EG,1638133031
265,iwanai,42.9744,140.5089,39.72,86,100,6.49,JP,1638133034
266,katsuura,35.1333,140.3,42.91,56,5,2.06,JP,1638133036
267,vostok,46.4856,135.8833,18.46,89,97,5.21,RU,1638132900
268,kulhudhuffushi,6.6221,73.07,79.66,81,98,11.74,MV,1638133041
269,lavumisa,-27.31,31.892,66.43,96,76,4.9,SZ,1638133044
270,nouadhibou,20.931,-17.0347,69.78,64,100,20.71,MR,1638133046
271,bouna,9.2667,-3.0,81.25,25,6,2.53,CI,1638133051
272,batagay-alyta,67.8006,130.4114,-19.62,93,98,4.14,RU,1638133053
273,qaanaaq,77.484,-69.3632,-8.21,77,23,8.23,GL,1638133056
274,castro,-24.7911,-50.0119,75.43,60,85,3.74,BR,1638133058
275,walvis bay,-22.9575,14.5053,59.95,88,0,5.75,NA,1638132958
276,mahebourg,-20.4081,57.7,73.69,83,20,3.44,MU,1638132957
277,oistins,13.0667,-59.5333,84.29,70,40,14.97,BB,1638132848
278,cherskiy,68.75,161.3,-11.42,99,100,6.53,RU,1638133068
279,anloga,5.7947,0.8973,82.62,78,70,11.95,GH,1638133070
280,edd,13.9297,41.6925,82.2,66,0,10.02,ER,1638133073
281,cockburn town,21.4612,-71.1419,80.56,65,40,8.05,TC,1638133076
282,ribeira grande,38.5167,-28.7,61.2,67,20,6.91,PT,1638133078
283,ilulissat,69.2167,-51.1,4.64,73,100,8.23,GL,1638133080
284,nuuk,64.1835,-51.7216,38.8,92,100,34.45,GL,1638132957
285,bereda,43.2686,-7.5406,47.95,96,100,6.4,ES,1638133085
286,isla mujeres,21.2311,-86.731,78.89,65,22,3.49,MX,1638133088
287,victoria,22.2855,114.1577,67.98,67,34,6.04,HK,1638132818
288,bermejo,-32.8833,-68.8,78.71,36,0,6.91,AR,1638133092
289,chuy,-33.6971,-53.4616,66.07,96,100,4.14,UY,1638133095
290,lompoc,34.6391,-120.4579,80.74,15,1,4.61,US,1638133036
291,geraldton,-28.7667,114.6,68.41,88,90,8.05,AU,1638132868
292,keuruu,62.2667,24.7,12.38,89,100,5.28,FI,1638133104
293,santa cruz de la palma,28.6835,-17.7642,68.14,73,75,19.57,ES,1638133107
294,annau,37.8876,58.516,44.1,70,40,2.3,TM,1638133109
295,praia,14.9215,-23.5087,75.74,69,40,24.16,CV,1638133112
296,kota kinabalu,5.9749,116.0724,76.98,94,20,4.61,MY,1638133114
297,atasu,48.6814,71.6433,13.12,66,11,6.8,KZ,1638133117
298,mount gambier,-37.8333,140.7667,49.91,93,0,8.05,AU,1638133120
299,muscat,23.6139,58.5922,76.35,51,0,8.1,OM,1638132991
300,mintlaw,57.5241,-2.001,33.85,76,81,8.12,GB,1638133124
301,saint-francois,46.4154,3.9054,35.04,93,90,13.8,FR,1638133127
302,petropavlovsk-kamchatskiy,53.0452,158.6483,7.39,72,0,4.47,RU,1638133129
303,karratha,-20.7377,116.8463,80.71,63,34,3.18,AU,1638133132
304,huntington,38.4193,-82.4452,48.54,59,5,10.0,US,1638133134
305,santa maria del oro,25.9333,-105.3667,63.25,37,69,4.47,MX,1638133136
306,khorinsk,52.1657,109.7726,5.88,95,100,2.68,RU,1638133139
307,kresttsy,58.2452,32.5165,27.03,94,100,0.72,RU,1638133144
308,ostrovnoy,68.0531,39.5131,15.76,84,100,8.37,RU,1638133146
309,lake havasu city,34.4839,-114.3224,73.4,11,1,3.44,US,1638133148
310,caravelas,-17.7125,-39.2481,74.3,96,56,14.63,BR,1638133153
311,omsukchan,62.5333,155.8,-14.75,100,100,3.02,RU,1638133156
312,avera,33.194,-82.5271,57.25,34,87,9.8,US,1638133158
313,wahiawa,21.5028,-158.0236,74.95,69,75,9.22,US,1638133160
314,puerto narino,-3.7703,-70.3831,91.35,61,78,2.06,CO,1638133163
315,ambanja,-13.6833,48.45,75.04,93,100,1.66,MG,1638133168
316,namatanai,-3.6667,152.4333,81.16,79,77,5.82,PG,1638133170
317,high level,58.5169,-117.136,14.11,92,75,2.3,CA,1638133173
318,naze,28.3667,129.4833,63.79,66,100,15.14,JP,1638133175
319,mabaruma,8.2,-59.7833,78.49,83,100,5.61,GY,1638133177
320,tigil,57.8,158.6667,-2.69,93,100,5.3,RU,1638133180
321,grindavik,63.8424,-22.4338,43.27,100,90,12.66,IS,1638133184
322,narva-joesuu,59.4589,28.0408,26.49,87,99,10.36,EE,1638133189
323,las vegas,36.175,-115.1372,72.03,11,1,0.0,US,1638132953
324,xichang,27.8964,102.2634,44.65,85,16,1.43,CN,1638133194
325,hobyo,5.3505,48.5268,81.54,76,42,15.14,SO,1638133196
326,morondava,-20.2833,44.2833,73.72,78,0,1.83,MG,1638133024
327,bubaque,11.2833,-15.8333,83.39,70,68,14.29,GW,1638133201
328,saint-pierre,-21.3393,55.4781,74.88,83,75,3.44,RE,1638133203
329,galesong,-5.3166,119.3661,73.42,80,100,9.46,ID,1638133207
330,port shepstone,-30.7414,30.455,70.93,89,2,5.08,ZA,1638133209
331,mairana,-18.1167,-63.9333,63.41,86,83,3.2,BO,1638133212
332,tautira,-17.7333,-149.15,84.22,80,90,18.66,PF,1638132971
333,oktyabrskiy,54.4815,53.471,28.9,93,100,12.75,RU,1638133216
334,lavrentiya,65.5833,-171.0,-13.04,92,3,6.82,RU,1638133219
335,bud,39.447,-86.1758,42.82,43,22,15.03,US,1638133221
336,taft,31.7471,54.2088,54.79,50,100,2.01,IR,1638133224
337,marfino,55.7028,37.3822,37.35,80,90,6.71,RU,1638133226
338,riyadh,24.6877,46.7219,60.94,34,0,7.87,SA,1638133165
339,alta floresta,-9.8756,-56.0861,80.56,79,55,3.24,BR,1638133231
340,shieli,44.1667,66.75,35.76,33,0,7.11,KZ,1638133236
341,jeremie,18.65,-74.1167,79.32,77,46,4.83,HT,1638133239
342,beringovskiy,63.05,179.3167,3.65,96,98,5.01,RU,1638133241
343,akyab,20.15,92.9,73.83,68,84,6.46,MM,1638133243
344,przhevalskoye,55.5093,31.8482,31.91,99,100,4.38,RU,1638133246
345,san cristobal,7.7669,-72.225,79.7,58,57,2.3,VE,1638133248
346,tuy hoa,13.0833,109.3,75.06,96,100,3.56,VN,1638132957
347,bonthe,7.5264,-12.505,80.1,80,6,6.06,SL,1638133253
348,goderich,43.7501,-81.7165,36.01,84,100,15.88,CA,1638133219
349,gravdal,68.1214,13.5031,28.08,93,75,2.3,NO,1638133262
350,boli,45.7667,130.5167,35.96,92,100,9.71,CN,1638133265
351,olinda,-8.0089,-34.8553,81.48,75,47,10.89,BR,1638133267
352,bolshaya martynovka,47.271,41.6679,50.79,68,100,11.16,RU,1638133270
353,metapan,14.3333,-89.45,84.87,39,96,7.74,SV,1638133273
354,ponta delgada,37.7333,-25.6667,59.72,77,75,8.05,PT,1638133275
355,fiesole,43.8049,11.2941,52.66,87,75,3.44,IT,1638133278
356,verkh-usugli,52.7,115.1667,1.29,94,100,1.92,RU,1638133280
357,dhidhdhoo,6.8833,73.1,79.41,82,100,8.81,MV,1638133283
358,inuvik,68.3499,-133.7218,-8.99,96,100,15.7,CA,1638133285
359,beloha,-25.1667,45.05,64.02,66,4,14.9,MG,1638133288
360,alcazar de san juan,39.3901,-3.2083,39.85,67,6,14.38,ES,1638133292
361,kanye,-24.9667,25.3327,71.22,50,0,8.55,BW,1638133295
362,pocatello,42.8713,-112.4455,53.78,31,3,6.6,US,1638133297
363,tucuma,-0.1833,-50.05,81.5,76,100,7.83,BR,1638133300
364,port macquarie,-31.4333,152.9167,65.55,80,100,6.22,AU,1638133302
365,herat,34.5,62.0,50.59,48,97,6.8,AF,1638133230
366,la mana,-0.9333,-79.2167,90.61,83,99,1.7,EC,1638133307
367,gigmoto,13.7796,124.39,80.08,88,96,9.64,PH,1638133309
368,orichi,58.4036,49.0572,34.02,98,100,11.16,RU,1638133312
369,talnakh,69.4865,88.3972,-16.1,98,72,2.37,RU,1638133314
370,badvel,14.75,79.05,72.25,94,100,3.71,IN,1638133317
371,vuktyl,63.8567,57.3094,23.76,95,100,10.51,RU,1638133319
372,monrovia,6.3005,-10.7969,78.57,76,11,7.72,LR,1638133220
373,vanavara,60.34,102.2797,7.25,97,100,3.83,RU,1638133324
374,labuan,5.2767,115.2417,75.36,75,100,6.91,MY,1638133326
375,sorland,67.667,12.6934,31.86,60,100,14.76,NO,1638133329
376,ambilobe,-13.2,49.05,75.61,87,68,2.68,MG,1638133331
377,oum hadjer,13.2954,19.6966,80.51,12,4,9.53,TD,1638133336
378,zambezi,-13.5432,23.1047,65.34,95,65,4.09,ZM,1638133338
379,bani walid,31.7566,13.9942,63.07,60,25,15.5,LY,1638133341
380,georgetown,5.4112,100.3354,76.95,88,20,0.0,MY,1638133177
381,olafsvik,64.8945,-23.7142,41.23,95,100,11.1,IS,1638133348
382,coroico,-16.1889,-67.7271,68.02,95,100,3.62,BO,1638133351
383,ahipara,-35.1667,173.1667,68.65,64,92,2.13,NZ,1638133353
384,fort nelson,58.8053,-122.7002,2.21,88,95,1.01,CA,1638133220
385,upernavik,72.7868,-56.1549,-9.53,80,8,11.07,GL,1638133358
386,prata,-19.3072,-48.9242,80.26,58,99,1.92,BR,1638133361
387,redmond,47.674,-122.1215,61.68,84,100,11.77,US,1638133365
388,caldogno,45.6078,11.5028,41.2,82,100,2.08,IT,1638133368
389,tyup,42.7276,78.3648,15.57,68,0,4.38,KG,1638133370
390,pudozh,61.8099,36.5345,11.98,95,100,3.22,RU,1638133373
391,najran,17.4924,44.1277,60.73,37,3,0.51,SA,1638133375
392,pahrump,36.2083,-115.9839,69.44,11,0,1.95,US,1638133327
393,freeport,40.6576,-73.5832,41.02,65,13,3.47,US,1638133104
394,bakchar,57.0186,82.0711,14.43,97,100,5.95,RU,1638133382
395,roma,43.2128,-75.4557,33.66,86,90,5.75,US,1638133385
396,oskemen,49.9565,82.6119,3.02,89,4,3.47,KZ,1638133387
397,khuzdar,27.7384,66.6434,52.09,34,0,0.16,PK,1638133389
398,ziro,27.6333,93.8333,36.9,71,0,3.0,IN,1638133392
399,padang,-0.9492,100.3543,75.94,88,96,2.93,ID,1638133394
400,natal,-5.795,-35.2094,84.85,74,20,12.66,BR,1638133171
401,haskovo,41.9403,25.5694,46.02,73,72,18.77,BG,1638133399
402,manicore,-5.8092,-61.3003,82.74,82,99,1.14,BR,1638133401
403,marienberg,50.65,13.1667,29.41,97,99,3.24,DE,1638133405
404,stranraer,54.9023,-5.0273,39.09,65,13,8.52,GB,1638133408
405,plettenberg bay,-34.0527,23.3716,64.67,83,81,8.46,ZA,1638133410
406,konya,38.1667,32.5,45.88,78,25,7.65,TR,1638133412
407,beeskow,52.1667,14.25,32.05,93,98,3.74,DE,1638133415
408,narsaq,60.9167,-46.05,35.82,99,100,2.95,GL,1638133391
409,bari,41.1177,16.8512,52.14,66,0,12.66,IT,1638133419
410,maldonado,-34.6667,-54.9167,65.59,93,100,7.58,UY,1638133422
411,umirim,-3.6772,-39.3503,82.62,68,7,10.02,BR,1638133424
412,prachuap khiri khan,12.2167,99.75,67.35,87,87,3.96,TH,1638133426
413,udachnyy,66.4167,112.4,-21.68,97,96,2.53,RU,1638133429
414,krasnoyarskiy,51.965,59.8967,17.73,87,100,4.18,RU,1638133431
415,abaza,52.655,90.0928,13.95,91,76,5.23,RU,1638133433
416,banfora,10.6333,-4.7667,82.15,18,36,2.86,BF,1638133436
417,thayetmyo,19.3167,95.1833,68.9,81,11,4.54,MM,1638133438
418,luganville,-15.5333,167.1667,82.18,75,5,4.94,VU,1638133443
419,laguna,38.421,-121.4238,71.42,57,1,8.05,US,1638133278
420,boden,65.8252,21.6886,-0.4,95,56,1.03,SE,1638133448
421,bac lieu,9.285,105.7244,74.95,98,100,9.15,VN,1638133450
422,tokat,40.4167,36.5833,43.95,78,74,7.61,TR,1638133452
423,kaa-khem,51.6833,94.7333,7.65,97,99,2.55,RU,1638133457
424,am timan,11.0297,20.2827,80.53,21,4,5.44,TD,1638133459
425,indramayu,-6.3264,108.32,78.98,80,83,3.49,ID,1638133462
426,beyneu,45.3167,55.2,36.0,45,70,9.57,KZ,1638133464
427,kahului,20.8947,-156.47,80.62,57,20,19.57,US,1638133467
428,korla,41.7597,86.1469,23.05,53,0,3.11,CN,1638133229
429,sinazongwe,-17.2614,27.4618,78.75,47,5,5.46,ZM,1638133471
430,yilan,24.757,121.753,71.71,99,100,5.79,TW,1638133473
431,fortuna,40.5982,-124.1573,53.94,93,90,0.0,US,1638133457
432,chapais,49.7834,-74.8492,14.47,94,100,4.05,CA,1638133478
433,wenling,28.3669,121.36,59.38,92,87,8.48,CN,1638133481
434,muroto,33.2833,134.15,53.56,60,2,3.71,JP,1638133483
435,deniliquin,-35.5333,144.9667,65.03,61,0,7.74,AU,1638133488
436,praia da vitoria,38.7333,-27.0667,60.39,60,100,3.04,PT,1638133490
437,coihaique,-45.5752,-72.0662,58.95,67,75,3.44,CL,1638133469
438,naryan-mar,67.6713,53.087,-7.08,100,85,5.75,RU,1638133495
439,ikalamavony,-21.15,46.5833,66.43,77,48,5.12,MG,1638133497
440,rosario do sul,-30.2583,-54.9142,70.05,87,96,8.55,BR,1638133502
441,port hardy,50.6996,-127.4199,50.18,100,75,5.75,CA,1638133220
442,samarai,-10.6167,150.6667,82.06,81,100,8.86,PG,1638133506
443,inhambane,-23.865,35.3833,71.83,68,1,11.52,MZ,1638133509
444,mercedes,-34.6515,-59.4307,60.19,96,100,13.87,AR,1638133487
445,matagami,49.7502,-77.6328,14.31,91,79,1.03,CA,1638133513
446,charlottesville,38.0293,-78.4767,58.05,49,100,7.65,US,1638133219
447,margate,51.3813,1.3862,33.66,78,34,24.2,GB,1638133520
448,lamu,-2.2717,40.902,80.82,84,92,5.93,KE,1638133523
449,vila velha,-20.3297,-40.2925,77.68,84,64,6.4,BR,1638133226
450,esfarayen,37.0765,57.5101,46.49,50,99,3.67,IR,1638133529
451,palo alto,37.4419,-122.143,73.85,42,1,6.91,US,1638133532
452,qui nhon,13.7667,109.2333,76.01,92,100,5.41,VN,1638133534
453,port augusta,-32.5,137.7667,64.54,44,0,5.84,AU,1638133537
454,constitucion,-35.3333,-72.4167,63.14,57,6,20.83,CL,1638133539
455,cap malheureux,-19.9842,57.6142,77.09,71,6,7.54,MU,1638133269
456,latung,5.5,120.8833,82.53,75,63,5.66,PH,1638133544
457,kita,13.0349,-9.4895,81.59,21,5,3.11,ML,1638133546
458,antofagasta,-23.65,-70.4,65.48,69,28,8.79,CL,1638133548
459,rafaela,-31.2503,-61.4867,76.62,44,3,13.04,AR,1638133553
460,nueva concepcion,14.2,-91.3,91.35,59,10,7.2,GT,1638133555
461,jizan,17.3333,42.6667,81.77,66,1,3.91,SA,1638133558
462,makakilo city,21.3469,-158.0858,80.92,58,1,9.22,US,1638133560
463,mozarlandia,-14.7447,-50.5706,81.81,75,73,3.98,BR,1638133563
464,punta gorda,26.9298,-82.0454,75.24,33,1,4.61,US,1638133565
465,haines junction,60.7522,-137.5108,-3.95,97,100,1.23,CA,1638133568
466,alekseyevsk,57.8406,108.3492,15.96,94,100,7.29,RU,1638133570
467,alyangula,-13.8483,136.4192,82.31,58,52,3.65,AU,1638133572
468,sorong,-0.8833,131.25,78.48,85,100,4.41,ID,1638133575
469,sola,-13.8833,167.55,81.27,83,75,0.0,VU,1638133579
470,vanersborg,58.3807,12.3234,24.75,86,100,14.97,SE,1638133584
471,bundaberg,-24.85,152.35,73.69,100,90,8.05,AU,1638133586
472,kostino,58.9097,53.2691,31.82,94,100,11.05,RU,1638133589
473,kerchevskiy,59.946,56.2884,28.78,95,100,11.32,RU,1638133591
474,alexandria,31.2156,29.9553,71.65,54,99,6.69,EG,1638133319
475,soyo,-6.1349,12.3689,78.64,89,90,5.61,AO,1638133456
476,quatre cocos,-20.2078,57.7625,76.06,71,4,4.79,MU,1638133598
477,gamba,-2.65,10.0,77.09,89,57,7.2,GA,1638133600
478,axim,4.8699,-2.2405,79.88,81,100,6.53,GH,1638133603
479,balakhonovskoye,44.7767,41.7842,46.47,68,100,5.82,RU,1638133606
480,mortka,59.3322,66.0214,24.1,82,97,10.83,RU,1638133610
481,svetlogorsk,52.6333,29.7333,40.19,95,100,7.78,BY,1638133612
482,belaya gora,68.5333,146.4167,-20.83,99,100,1.63,RU,1638133615
483,kamskiye polyany,55.4307,51.4171,31.01,95,100,12.8,RU,1638133617
484,cairns,-16.9167,145.7667,76.95,94,90,5.75,AU,1638133620
485,lillooet,50.6856,-121.942,48.06,99,100,4.03,CA,1638133622
486,mbanza-ngungu,-5.25,14.8667,69.08,91,100,3.0,CD,1638133625
487,muros,42.7762,-9.0603,52.3,82,77,13.85,ES,1638133630
488,mastic beach,40.7668,-72.8521,41.2,70,90,0.0,US,1638133632
489,ojinaga,29.5667,-104.4167,67.15,52,1,4.61,MX,1638133634
490,ampanihy,-24.7,44.75,61.5,68,1,13.35,MG,1638133639
491,mezhdurechensk,53.6942,88.0603,19.33,96,100,2.98,RU,1638133641
492,ugoofaaru,5.6667,73.0,80.02,80,99,12.88,MV,1638133644
493,bathsheba,13.2167,-59.5167,83.01,74,40,13.8,BB,1638133646
494,alice springs,-23.7,133.8833,60.35,72,0,0.0,AU,1638133579
495,pacasmayo,-7.4006,-79.5714,69.67,77,100,15.17,PE,1638133653
496,mokhsogollokh,61.4681,128.9203,-3.37,95,100,6.55,RU,1638133655
497,kankon,15.0167,74.0167,78.6,78,93,7.02,IN,1638133658
498,garissa,-0.4536,39.6401,76.64,85,96,13.78,KE,1638133660
499,marawi,7.9986,124.2928,68.07,91,62,2.3,PH,1638133667
500,nova granada,-20.5339,-49.3142,83.84,57,91,3.91,BR,1638133669
501,alenquer,-1.9417,-54.7383,88.14,59,99,1.59,BR,1638133672
502,marzuq,14.4,46.4667,63.93,30,0,4.7,YE,1638133674
503,bilibino,68.0546,166.4372,-1.19,98,97,3.0,RU,1638133450
504,rio gallegos,-51.6226,-69.2181,60.33,29,100,38.88,AR,1638133538
505,chara,56.9064,118.2631,-11.96,85,100,0.09,RU,1638133681
506,izumo,35.3667,132.7667,44.44,74,100,5.3,JP,1638133683
507,guangshui,31.6199,113.9978,47.34,77,7,4.74,CN,1638133686
508,awjilah,29.1081,21.2869,76.35,20,100,12.48,LY,1638133688
509,kavieng,-2.5744,150.7967,81.84,78,64,8.41,PG,1638133691
510,zatyshshya,47.3335,29.8733,49.05,97,94,12.08,UA,1638133693
511,homer,59.6425,-151.5483,13.89,79,90,18.41,US,1638133696
512,wanning,18.8003,110.3967,72.64,78,100,14.14,CN,1638133698
513,mount barker,-35.0667,138.8667,55.29,40,0,2.3,AU,1638133701
514,tank,32.2217,70.3793,60.66,30,0,2.42,PK,1638133695
515,san carlos del zulia,9.0,-71.9135,81.72,81,93,4.83,VE,1638133705
516,mizan teferi,6.9833,35.5833,66.78,74,99,2.95,ET,1638133708
517,acucena,-19.0731,-42.5464,73.65,83,2,1.28,BR,1638133710
518,tambacounda,13.7539,-13.7586,89.02,20,39,10.67,SN,1638133713
519,vestmannaeyjar,63.4427,-20.2734,42.94,95,100,8.1,IS,1638133715
520,sioux lookout,50.1001,-91.917,22.48,85,97,6.51,CA,1638133717
521,do gonbadan,30.3586,50.7981,60.1,59,51,2.91,IR,1638133528
522,gaoua,10.2992,-3.2508,81.28,19,27,1.74,BF,1638133722
523,batagay,67.6333,134.6333,-18.35,100,98,1.21,RU,1638133724
524,tabasco,18.0,-92.6667,82.51,65,75,0.0,MX,1638133727
525,panorama,40.5878,23.0315,56.73,82,75,11.5,GR,1638133731
526,sherbakul,54.6316,72.3963,6.48,88,99,6.64,RU,1638133736
527,chone,-0.6833,-80.1,79.97,69,99,4.68,EC,1638133738
528,vila franca do campo,37.7167,-25.4333,59.41,67,95,4.9,PT,1638133741
529,mamit,23.9333,92.4833,54.03,90,2,2.39,IN,1638133743
530,morro bay,35.3658,-120.8499,82.85,27,0,3.06,US,1638133745
531,abu samrah,35.3029,37.1841,60.57,57,5,6.4,SY,1638133748
532,touros,-5.1989,-35.4608,83.3,77,53,10.87,BR,1638133752
533,broken hill,-31.95,141.4333,68.22,56,10,9.48,AU,1638133755
534,puerto escondido,15.85,-97.0667,86.83,58,40,8.05,MX,1638133757
535,shelburne,44.0787,-80.2041,26.49,98,100,3.24,CA,1638133650
536,pili,13.5833,123.3,75.02,94,98,2.19,PH,1638133764
537,madaoua,14.073,5.96,78.85,12,99,9.35,NE,1638133766
538,mazatlan,23.2167,-106.4167,82.36,61,90,4.61,MX,1638133487
539,iranshahr,27.2025,60.6848,66.87,32,0,3.33,IR,1638133471
540,alassio,44.0039,8.1671,46.87,52,99,8.86,IT,1638133773
541,burnie,-41.0667,145.9167,54.21,74,8,6.49,AU,1638133776
542,taoudenni,22.6783,-3.9836,68.72,21,3,10.31,ML,1638133778
543,shubarkuduk,49.1447,56.4872,20.19,87,100,4.85,KZ,1638133780
544,geelong,-38.1471,144.3607,58.32,82,0,3.44,AU,1638133506
545,spas-klepiki,55.1347,40.1767,29.23,97,100,3.71,RU,1638133785
546,bonavista,48.6499,-53.1147,43.75,79,10,16.8,CA,1638133787
547,ust-ilimsk,58.0006,102.6619,18.18,94,100,8.21,RU,1638133790
548,urgut,39.4022,67.2431,35.22,53,10,1.72,UZ,1638133792
549,tuxtepec,18.1,-96.1167,78.22,77,99,5.59,MX,1638133796
550,plouzane,48.3833,-4.6167,44.65,100,75,5.75,FR,1638133699
551,omboue,-1.5746,9.2618,77.04,87,72,6.33,GA,1638133801
552,eyl,7.9803,49.8164,77.45,72,38,15.9,SO,1638133803
553,tigre,-34.426,-58.5796,64.4,94,100,8.05,AR,1638133638
554,baleshwar,21.4942,86.9317,64.06,53,39,5.12,IN,1638133808
555,leh,34.1667,77.5833,14.45,65,1,2.51,IN,1638133810
556,santiago del estero,-27.7951,-64.2615,88.3,20,0,12.62,AR,1638133812
557,pangnirtung,66.1451,-65.7125,17.71,77,100,7.63,CA,1638133815
558,ratnagiri,16.9833,73.3,75.49,59,76,7.36,IN,1638133817
559,seoul,37.5683,126.9778,36.84,34,100,1.97,KR,1638133820
560,jacmel,18.2342,-72.5347,84.04,73,56,2.98,HT,1638133822
561,iracoubo,5.4802,-53.2011,80.22,76,16,7.4,GF,1638133825
562,gouyave,12.1646,-61.7296,81.07,75,44,14.79,GD,1638133829
563,kultuk,51.7208,103.6956,16.47,89,100,4.99,RU,1638133832
564,casablanca,33.5928,-7.6192,50.22,56,13,4.76,MA,1638133762
565,eureka,40.8021,-124.1637,54.21,81,70,4.99,US,1638133837
566,lakes entrance,-37.8811,147.981,55.65,77,6,3.47,AU,1638133788
567,sistranda,63.7256,8.834,21.16,70,92,16.55,NO,1638133844
568,kennewick,46.2113,-119.1372,70.03,59,1,17.27,US,1638133846
569,vardo,70.3705,31.1107,15.78,86,90,13.8,NO,1638133849
570,mackay,-21.15,149.2,79.7,79,80,7.34,AU,1638133851
571,uvalde,29.3669,-99.767,72.59,35,1,6.91,US,1638133854
572,san patricio,28.017,-97.5169,70.21,62,100,10.16,US,1638133856
